{"type": "FeatureCollection", "features": [{"geometry": {"type": "Point", "coordinates": [-90.525512, 14.606274]}, "type": "Feature", "id": "4e3783e47ce34f2eb00c0db9f64851b0.16", "properties": {"name": "4e3783e47ce34f2eb00c0db9f64851b0.16"}}, {"geometry": {"type": "Point", "coordinates": [-90.490952, 14.665318]}, "type": "Feature", "id": "45d6cd21c41f4a0c8344468e72ce2e04.16", "properties": {"name": "45d6cd21c41f4a0c8344468e72ce2e04.16"}}, {"geometry": {"type": "Point", "coordinates": [-90.554044, 14.593368]}, "type": "Feature", "id": "8fb86ff02ba146b9a3ee8cfad9c8279f.11", "properties": {"name": "8fb86ff02ba146b9a3ee8cfad9c8279f.11"}}, {"geometry": {"type": "Point", "coordinates": [-90.512761, 14.651867]}, "type": "Feature", "id": "6f02014fa4c1480c8e41ea402a9bfd08.16", "properties": {"name": "6f02014fa4c1480c8e41ea402a9bfd08.16"}}, {"geometry": {"type": "Point", "coordinates": [-90.532691, 14.587124]}, "type": "Feature", "id": "5bef2127457242de867e1231d10d5d7d.16", "properties": {"name": "5bef2127457242de867e1231d10d5d7d.16"}}, {"geometry": {"type": "Point", "coordinates": [-90.504207, 14.59191]}, "type": "Feature", "id": "2bea35cdd54d4d2fbc0fc2617fc0c3b1.16", "properties": {"name": "2bea35cdd54d4d2fbc0fc2617fc0c3b1.16"}}, {"geometry": {"type": "Point", "coordinates": [-90.511433, 14.634375]}, "type": "Feature", "id": "b993cc1a6d5046bdbc2fca19d83e4ce6.16", "properties": {"name": "b993cc1a6d5046bdbc2fca19d83e4ce6.16"}}, {"geometry": {"type": "Point", "coordinates": [-90.514951, 14.666001]}, "type": "Feature", "id": "054296ac4b774306847f45b1de79e171.16", "properties": {"name": "054296ac4b774306847f45b1de79e171.16"}}, {"geometry": {"type": "Point", "coordinates": [-90.484113, 14.673466]}, "type": "Feature", "id": "0fbbd304b9f5449ca238c58220dee378.16", "properties": {"name": "0fbbd304b9f5449ca238c58220dee378.16"}}, {"geometry": {"type": "Point", "coordinates": [-90.513787, 14.592977]}, "type": "Feature", "id": "07efc4a78fc74e968603c7be6865dae4.16", "properties": {"name": "07efc4a78fc74e968603c7be6865dae4.16"}}, {"geometry": {"type": "Point", "coordinates": [-90.450801, 14.647023]}, "type": "Feature", "id": "31a6f3ad7e5e4fa4b512b18f6d5a36c6.16", "properties": {"name": "31a6f3ad7e5e4fa4b512b18f6d5a36c6.16"}}, {"geometry": {"type": "Point", "coordinates": [-90.510338, 14.613358]}, "type": "Feature", "id": "a4da7ba50f8a4825959cc1f264ef9f3b.16", "properties": {"name": "a4da7ba50f8a4825959cc1f264ef9f3b.16"}}, {"geometry": {"type": "Point", "coordinates": [-90.516471, 14.624622]}, "type": "Feature", "id": "e20781bdd1cc4844927530b1d4a7702a.16", "properties": {"name": "e20781bdd1cc4844927530b1d4a7702a.16"}}, {"geometry": {"type": "Point", "coordinates": [-90.548204, 14.588304]}, "type": "Feature", "id": "e40b397118a84051a15df386ec86260d.16", "properties": {"name": "e40b397118a84051a15df386ec86260d.16"}}, {"geometry": {"type": "Point", "coordinates": [-90.517553, 14.606959]}, "type": "Feature", "id": "acee7e067b924ffb9556dfcbedeba779.11", "properties": {"name": "acee7e067b924ffb9556dfcbedeba779.11"}}, {"geometry": {"type": "Point", "coordinates": [-90.508454, 14.639019]}, "type": "Feature", "id": "b9577ade5b2a45b7b9b6d608abcadca8.16", "properties": {"name": "b9577ade5b2a45b7b9b6d608abcadca8.16"}}, {"geometry": {"type": "Point", "coordinates": [-90.52932, 14.600281]}, "type": "Feature", "id": "edfb33dba976416ea0c569d59c4eab9a.16", "properties": {"name": "edfb33dba976416ea0c569d59c4eab9a.16"}}, {"geometry": {"type": "Point", "coordinates": [-90.567574, 14.597322]}, "type": "Feature", "id": "b6f2bd2672e446d784730efc0c6efc52.16", "properties": {"name": "b6f2bd2672e446d784730efc0c6efc52.16"}}, {"geometry": {"type": "Point", "coordinates": [-90.532037, 14.594833]}, "type": "Feature", "id": "c47d1c06e1de4c05aced863c69f14ce7.16", "properties": {"name": "c47d1c06e1de4c05aced863c69f14ce7.16"}}, {"geometry": {"type": "Point", "coordinates": [-90.508648, 14.593185]}, "type": "Feature", "id": "6956098cd1574e1ca59c6d1c9d1dbe14.16", "properties": {"name": "6956098cd1574e1ca59c6d1c9d1dbe14.16"}}, {"geometry": {"type": "Point", "coordinates": [-90.469725, 14.625789]}, "type": "Feature", "id": "6406cea124e14802b6e172caaef50edb.16", "properties": {"name": "6406cea124e14802b6e172caaef50edb.16"}}, {"geometry": {"type": "Point", "coordinates": [-90.488554, 14.60465]}, "type": "Feature", "id": "4177f13660924f46a389a3796a77c3ce.16", "properties": {"name": "4177f13660924f46a389a3796a77c3ce.16"}}, {"geometry": {"type": "Point", "coordinates": [-90.481216, 14.648431]}, "type": "Feature", "id": "271d063b2237489dad6b173aa6a9c91f.16", "properties": {"name": "271d063b2237489dad6b173aa6a9c91f.16"}}, {"geometry": {"type": "Point", "coordinates": [-90.512256, 14.627485]}, "type": "Feature", "id": "f9ff39f095c84446b85540a1ca7dd417.16", "properties": {"name": "f9ff39f095c84446b85540a1ca7dd417.16"}}, {"geometry": {"type": "Point", "coordinates": [-90.516303, 14.601787]}, "type": "Feature", "id": "1e9e346fa3ed4e4e872b394da15f8282.16", "properties": {"name": "1e9e346fa3ed4e4e872b394da15f8282.16"}}, {"geometry": {"type": "Point", "coordinates": [-90.520447, 14.585589]}, "type": "Feature", "id": "17146ba454c74b179095f6bc906f0117.16", "properties": {"name": "17146ba454c74b179095f6bc906f0117.16"}}, {"geometry": {"type": "Point", "coordinates": [-90.498885, 14.654605]}, "type": "Feature", "id": "c99fd73fa4e2412b99bf857a5832cc04.16", "properties": {"name": "c99fd73fa4e2412b99bf857a5832cc04.16"}}, {"geometry": {"type": "Point", "coordinates": [-90.566119, 14.579871]}, "type": "Feature", "id": "457b93a887374217b673513aacf512bb.16", "properties": {"name": "457b93a887374217b673513aacf512bb.16"}}, {"geometry": {"type": "Point", "coordinates": [-90.512992, 14.637131]}, "type": "Feature", "id": "f24fa2691d8f484498374b5d221b1844.11", "properties": {"name": "f24fa2691d8f484498374b5d221b1844.11"}}, {"geometry": {"type": "Point", "coordinates": [-90.516994, 14.643775]}, "type": "Feature", "id": "8bd01dc57fbe454e9e31f2e94b9568c8.16", "properties": {"name": "8bd01dc57fbe454e9e31f2e94b9568c8.16"}}, {"geometry": {"type": "Point", "coordinates": [-90.559036, 14.621833]}, "type": "Feature", "id": "bcbcb9f8f9e14d4484d60eb2cd968341.16", "properties": {"name": "bcbcb9f8f9e14d4484d60eb2cd968341.16"}}, {"geometry": {"type": "Point", "coordinates": [-90.470554, 14.611077]}, "type": "Feature", "id": "62dd50bfc7484441837daf31ce12a4f0.16", "properties": {"name": "62dd50bfc7484441837daf31ce12a4f0.16"}}, {"geometry": {"type": "Point", "coordinates": [-90.553095, 14.604716]}, "type": "Feature", "id": "6ed9a5e36ac947dd9496a4550fd14e00.16", "properties": {"name": "6ed9a5e36ac947dd9496a4550fd14e00.16"}}, {"geometry": {"type": "Point", "coordinates": [-90.552953, 14.598599]}, "type": "Feature", "id": "fc416dda2d29460894eee025dc76248e.16", "properties": {"name": "fc416dda2d29460894eee025dc76248e.16"}}, {"geometry": {"type": "Point", "coordinates": [-90.505452, 14.607569]}, "type": "Feature", "id": "0eea4eb8a85144bf8ff1c3ad9f6a777a.16", "properties": {"name": "0eea4eb8a85144bf8ff1c3ad9f6a777a.16"}}, {"geometry": {"type": "Point", "coordinates": [-90.549698, 14.575576]}, "type": "Feature", "id": "0a28f9fc06e344f7838bda7274ec343c.16", "properties": {"name": "0a28f9fc06e344f7838bda7274ec343c.16"}}, {"geometry": {"type": "Point", "coordinates": [-90.5601, 14.627102]}, "type": "Feature", "id": "9dc9f6f3b5c9469e829d756fced7e100.16", "properties": {"name": "9dc9f6f3b5c9469e829d756fced7e100.16"}}, {"geometry": {"type": "Point", "coordinates": [-90.553587, 14.620201]}, "type": "Feature", "id": "cca3ae621c74409aa1c18262ec03fa24.16", "properties": {"name": "cca3ae621c74409aa1c18262ec03fa24.16"}}, {"geometry": {"type": "Point", "coordinates": [-90.504397, 14.613255]}, "type": "Feature", "id": "15d2763111b2451d8d7b86a45f7ade82.16", "properties": {"name": "15d2763111b2451d8d7b86a45f7ade82.16"}}, {"geometry": {"type": "Point", "coordinates": [-90.525857, 14.573185]}, "type": "Feature", "id": "7dc740c7d6b14f9abcf0190157f420cc.16", "properties": {"name": "7dc740c7d6b14f9abcf0190157f420cc.16"}}, {"geometry": {"type": "Point", "coordinates": [-90.520842, 14.591618]}, "type": "Feature", "id": "d35f21060e0243d99b26da839ad4f447.16", "properties": {"name": "d35f21060e0243d99b26da839ad4f447.16"}}, {"geometry": {"type": "Point", "coordinates": [-90.510233, 14.610534]}, "type": "Feature", "id": "b5c1c8a529f743929621207b996cee48.16", "properties": {"name": "b5c1c8a529f743929621207b996cee48.16"}}, {"geometry": {"type": "Point", "coordinates": [-90.547132, 14.574148]}, "type": "Feature", "id": "81617c04ce4c4391b1f7bd281ea09a5d.16", "properties": {"name": "81617c04ce4c4391b1f7bd281ea09a5d.16"}}, {"geometry": {"type": "Point", "coordinates": [-90.554392, 14.620089]}, "type": "Feature", "id": "33bec40b9e94425d981aca38a367a793.16", "properties": {"name": "33bec40b9e94425d981aca38a367a793.16"}}, {"geometry": {"type": "Point", "coordinates": [-90.549412, 14.588063]}, "type": "Feature", "id": "eb4aad0d2c2e49f3aab1a7610cffcad2.16", "properties": {"name": "eb4aad0d2c2e49f3aab1a7610cffcad2.16"}}, {"geometry": {"type": "Point", "coordinates": [-90.542279, 14.585759]}, "type": "Feature", "id": "67f44d77e693473c8b7459d99ac94660.16", "properties": {"name": "67f44d77e693473c8b7459d99ac94660.16"}}, {"geometry": {"type": "Point", "coordinates": [-90.540198, 14.644978]}, "type": "Feature", "id": "41f27fd730eb4b57a34a80a85924e426.16", "properties": {"name": "41f27fd730eb4b57a34a80a85924e426.16"}}, {"geometry": {"type": "Point", "coordinates": [-90.48486, 14.595707]}, "type": "Feature", "id": "f9651303f08e473c9419587bd9b45917.16", "properties": {"name": "f9651303f08e473c9419587bd9b45917.16"}}, {"geometry": {"type": "Point", "coordinates": [-90.544467, 14.636287]}, "type": "Feature", "id": "9305161119bb422c9cc9ae264308812c.16", "properties": {"name": "9305161119bb422c9cc9ae264308812c.16"}}, {"geometry": {"type": "Point", "coordinates": [-90.511053, 14.6525]}, "type": "Feature", "id": "ed595fedc0b44c92afb2a28467a4e525.16", "properties": {"name": "ed595fedc0b44c92afb2a28467a4e525.16"}}, {"geometry": {"type": "Point", "coordinates": [-90.494968, 14.580035]}, "type": "Feature", "id": "4acbed0b40584e19bb81d742bae70012.16", "properties": {"name": "4acbed0b40584e19bb81d742bae70012.16"}}, {"geometry": {"type": "Point", "coordinates": [-90.509281, 14.619954]}, "type": "Feature", "id": "4bc1186a928843e19462f67c9cf1ab50.16", "properties": {"name": "4bc1186a928843e19462f67c9cf1ab50.16"}}, {"geometry": {"type": "Point", "coordinates": [-90.52124, 14.625668]}, "type": "Feature", "id": "8aa424f5966a48c1af19382b21fccdb3.16", "properties": {"name": "8aa424f5966a48c1af19382b21fccdb3.16"}}, {"geometry": {"type": "Point", "coordinates": [-90.510007, 14.602603]}, "type": "Feature", "id": "84280a5652e349f8ae0f477e770e254c.16", "properties": {"name": "84280a5652e349f8ae0f477e770e254c.16"}}, {"geometry": {"type": "Point", "coordinates": [-90.578746, 14.597704]}, "type": "Feature", "id": "9e4f4a76a2a8404aa2bec9149418028d.16", "properties": {"name": "9e4f4a76a2a8404aa2bec9149418028d.16"}}, {"geometry": {"type": "Point", "coordinates": [-90.504029, 14.588099]}, "type": "Feature", "id": "42727b7d1a15469c92dcb3bb5770ab79.16", "properties": {"name": "42727b7d1a15469c92dcb3bb5770ab79.16"}}, {"geometry": {"type": "Point", "coordinates": [-90.527083, 14.630964]}, "type": "Feature", "id": "27b17c58598c4f77922d83b1f5d1d03f.16", "properties": {"name": "27b17c58598c4f77922d83b1f5d1d03f.16"}}, {"geometry": {"type": "Point", "coordinates": [-90.478407, 14.621806]}, "type": "Feature", "id": "963ce6afeec5411fb6c3040e9612aaf6.16", "properties": {"name": "963ce6afeec5411fb6c3040e9612aaf6.16"}}, {"geometry": {"type": "Point", "coordinates": [-90.52921, 14.597684]}, "type": "Feature", "id": "4b4ec3fa7ac5432c95b67d55f5f5a2d7.16", "properties": {"name": "4b4ec3fa7ac5432c95b67d55f5f5a2d7.16"}}, {"geometry": {"type": "Point", "coordinates": [-90.512883, 14.646217]}, "type": "Feature", "id": "e7a9b56bd9c14652a21d44547cea7132.16", "properties": {"name": "e7a9b56bd9c14652a21d44547cea7132.16"}}, {"geometry": {"type": "Point", "coordinates": [-90.517838, 14.578757]}, "type": "Feature", "id": "192ab10442204c959517bf4f2e4dcb17.16", "properties": {"name": "192ab10442204c959517bf4f2e4dcb17.16"}}, {"geometry": {"type": "Point", "coordinates": [-90.516561, 14.618537]}, "type": "Feature", "id": "c5899278a6cb419c9ce58ee63acfed16.16", "properties": {"name": "c5899278a6cb419c9ce58ee63acfed16.16"}}, {"geometry": {"type": "Point", "coordinates": [-90.513973, 14.613359]}, "type": "Feature", "id": "97c46e8562714a10a2800ec124a8e7e9.11", "properties": {"name": "97c46e8562714a10a2800ec124a8e7e9.11"}}, {"geometry": {"type": "Point", "coordinates": [-90.574867, 14.597183]}, "type": "Feature", "id": "01db39e75cd94bb78a4fc4bdfccb8b5d.16", "properties": {"name": "01db39e75cd94bb78a4fc4bdfccb8b5d.16"}}, {"geometry": {"type": "Point", "coordinates": [-90.499607, 14.650405]}, "type": "Feature", "id": "247669171fd94b65934cf5236a13fe82.16", "properties": {"name": "247669171fd94b65934cf5236a13fe82.16"}}, {"geometry": {"type": "Point", "coordinates": [-90.483274, 14.611919]}, "type": "Feature", "id": "e5acdb1b120543a2b424fd2d5db98cb7.16", "properties": {"name": "e5acdb1b120543a2b424fd2d5db98cb7.16"}}, {"geometry": {"type": "Point", "coordinates": [-90.51189, 14.630085]}, "type": "Feature", "id": "4eb20699ea344a1b8e0c26045a4738f0.16", "properties": {"name": "4eb20699ea344a1b8e0c26045a4738f0.16"}}, {"geometry": {"type": "Point", "coordinates": [-90.507881, 14.642772]}, "type": "Feature", "id": "13679231ddb04873ab772a96164dfdec.16", "properties": {"name": "13679231ddb04873ab772a96164dfdec.16"}}, {"geometry": {"type": "Point", "coordinates": [-90.530821, 14.589923]}, "type": "Feature", "id": "24cb0a6ea9ba4431af417c9a18bc44b9.16", "properties": {"name": "24cb0a6ea9ba4431af417c9a18bc44b9.16"}}, {"geometry": {"type": "Point", "coordinates": [-90.579534, 14.601511]}, "type": "Feature", "id": "9453abf2a3db44d989bdd19e90eec4e7.16", "properties": {"name": "9453abf2a3db44d989bdd19e90eec4e7.16"}}, {"geometry": {"type": "Point", "coordinates": [-90.484422, 14.666986]}, "type": "Feature", "id": "e4cf598c573445a9b386e40753bf9e7d.16", "properties": {"name": "e4cf598c573445a9b386e40753bf9e7d.16"}}, {"geometry": {"type": "Point", "coordinates": [-90.520129, 14.639088]}, "type": "Feature", "id": "66fc43e8ca884eb9a335e8e41e3f46cd.16", "properties": {"name": "66fc43e8ca884eb9a335e8e41e3f46cd.16"}}, {"geometry": {"type": "Point", "coordinates": [-90.515195, 14.610201]}, "type": "Feature", "id": "46d29575a88e47149e60f5724e9a2295.16", "properties": {"name": "46d29575a88e47149e60f5724e9a2295.16"}}, {"geometry": {"type": "Point", "coordinates": [-90.505811, 14.655438]}, "type": "Feature", "id": "25f45602309942779947a305d4fd8421.16", "properties": {"name": "25f45602309942779947a305d4fd8421.16"}}, {"geometry": {"type": "Point", "coordinates": [-90.506195, 14.647802]}, "type": "Feature", "id": "09c1878a6aba4aeda0334471ae6495a3.16", "properties": {"name": "09c1878a6aba4aeda0334471ae6495a3.16"}}, {"geometry": {"type": "Point", "coordinates": [-90.494757, 14.595456]}, "type": "Feature", "id": "f8cc3de7c8124eb098daaed400fd9cca.16", "properties": {"name": "f8cc3de7c8124eb098daaed400fd9cca.16"}}, {"geometry": {"type": "Point", "coordinates": [-90.512993, 14.656487]}, "type": "Feature", "id": "01e1625d34864319a670a0490d3c1573.16", "properties": {"name": "01e1625d34864319a670a0490d3c1573.16"}}, {"geometry": {"type": "Point", "coordinates": [-90.489566, 14.608912]}, "type": "Feature", "id": "a1fa326e4ba9410c82817b60b1b16fe3.16", "properties": {"name": "a1fa326e4ba9410c82817b60b1b16fe3.16"}}, {"geometry": {"type": "Point", "coordinates": [-90.510467, 14.65827]}, "type": "Feature", "id": "b1ca99e944ef4e428b7977f6096f545f.16", "properties": {"name": "b1ca99e944ef4e428b7977f6096f545f.16"}}, {"geometry": {"type": "Point", "coordinates": [-90.577005, 14.593547]}, "type": "Feature", "id": "3248d1b6ea504400a0e547bcf5d33cee.16", "properties": {"name": "3248d1b6ea504400a0e547bcf5d33cee.16"}}, {"geometry": {"type": "Point", "coordinates": [-90.515341, 14.599499]}, "type": "Feature", "id": "ef7a5015030c4b53b851a19ccb792ae3.16", "properties": {"name": "ef7a5015030c4b53b851a19ccb792ae3.16"}}, {"geometry": {"type": "Point", "coordinates": [-90.551362, 14.623446]}, "type": "Feature", "id": "c51d79c29c38497cbc6b60d736fd7deb.16", "properties": {"name": "c51d79c29c38497cbc6b60d736fd7deb.16"}}, {"geometry": {"type": "Point", "coordinates": [-90.548296, 14.631644]}, "type": "Feature", "id": "a38670a1abef4757b26486500c2202a9.16", "properties": {"name": "a38670a1abef4757b26486500c2202a9.16"}}, {"geometry": {"type": "Point", "coordinates": [-90.504055, 14.644241]}, "type": "Feature", "id": "fe5e3bb7f8884296abeaf3505b2d2473.16", "properties": {"name": "fe5e3bb7f8884296abeaf3505b2d2473.16"}}, {"geometry": {"type": "Point", "coordinates": [-90.500659, 14.603385]}, "type": "Feature", "id": "2e37a511f9124cf79e6b19ca6c60be54.16", "properties": {"name": "2e37a511f9124cf79e6b19ca6c60be54.16"}}, {"geometry": {"type": "Point", "coordinates": [-90.492356, 14.649721]}, "type": "Feature", "id": "c4646ab217e54b15aff1b1dbd5f02d3a.16", "properties": {"name": "c4646ab217e54b15aff1b1dbd5f02d3a.16"}}, {"geometry": {"type": "Point", "coordinates": [-90.511533, 14.647418]}, "type": "Feature", "id": "7b70b0cd31e0463ca86f59245c845e19.16", "properties": {"name": "7b70b0cd31e0463ca86f59245c845e19.16"}}, {"geometry": {"type": "Point", "coordinates": [-90.499471, 14.659421]}, "type": "Feature", "id": "abc088e5cb4f4fa6bf22280cb386d3f0.16", "properties": {"name": "abc088e5cb4f4fa6bf22280cb386d3f0.16"}}, {"geometry": {"type": "Point", "coordinates": [-90.580575, 14.617713]}, "type": "Feature", "id": "a2fbf46196d04ae9814f29ec8f1bd947.16", "properties": {"name": "a2fbf46196d04ae9814f29ec8f1bd947.16"}}, {"geometry": {"type": "Point", "coordinates": [-90.517221, 14.597317]}, "type": "Feature", "id": "825c19cc10cf41b28617b8ccb62e13c6.12", "properties": {"name": "825c19cc10cf41b28617b8ccb62e13c6.12"}}, {"geometry": {"type": "Point", "coordinates": [-90.52346, 14.586567]}, "type": "Feature", "id": "3af8bcd7808d4180bb3347ac043501b1.16", "properties": {"name": "3af8bcd7808d4180bb3347ac043501b1.16"}}, {"geometry": {"type": "Point", "coordinates": [-90.488768, 14.680689]}, "type": "Feature", "id": "ce6d1cb1a3e74e48a48b7abfc33f2ea6.16", "properties": {"name": "ce6d1cb1a3e74e48a48b7abfc33f2ea6.16"}}, {"geometry": {"type": "Point", "coordinates": [-90.516509, 14.600933]}, "type": "Feature", "id": "c8c9afc093814f9fb9975871fb7b6c7a.16", "properties": {"name": "c8c9afc093814f9fb9975871fb7b6c7a.16"}}, {"geometry": {"type": "Point", "coordinates": [-90.491017, 14.663549]}, "type": "Feature", "id": "a3ddc2d84d09476ab823f792445101bc.16", "properties": {"name": "a3ddc2d84d09476ab823f792445101bc.16"}}, {"geometry": {"type": "Point", "coordinates": [-90.481417, 14.645277]}, "type": "Feature", "id": "b3a930ae848244bc86187b1f39ac1ea8.16", "properties": {"name": "b3a930ae848244bc86187b1f39ac1ea8.16"}}, {"geometry": {"type": "Point", "coordinates": [-90.496105, 14.603084]}, "type": "Feature", "id": "d6863e9073f54520b35916d6ede74c23.16", "properties": {"name": "d6863e9073f54520b35916d6ede74c23.16"}}, {"geometry": {"type": "Point", "coordinates": [-90.482826, 14.576191]}, "type": "Feature", "id": "e5a300cd5c144057a3a70d9341602817.16", "properties": {"name": "e5a300cd5c144057a3a70d9341602817.16"}}, {"geometry": {"type": "Point", "coordinates": [-90.522328, 14.580022]}, "type": "Feature", "id": "6f183de8522e4be79181f5f12a2aaed2.16", "properties": {"name": "6f183de8522e4be79181f5f12a2aaed2.16"}}, {"geometry": {"type": "Point", "coordinates": [-90.532159, 14.608963]}, "type": "Feature", "id": "f34a983edeb8431095460e51bc00273c.16", "properties": {"name": "f34a983edeb8431095460e51bc00273c.16"}}, {"geometry": {"type": "Point", "coordinates": [-90.477125, 14.647467]}, "type": "Feature", "id": "11795242fd01440b9c69f3ccf8f86873.16", "properties": {"name": "11795242fd01440b9c69f3ccf8f86873.16"}}, {"geometry": {"type": "Point", "coordinates": [-90.510067, 14.627967]}, "type": "Feature", "id": "ddb69f3eb3a842188cec5e52cb210ec6.16", "properties": {"name": "ddb69f3eb3a842188cec5e52cb210ec6.16"}}, {"geometry": {"type": "Point", "coordinates": [-90.513527, 14.659194]}, "type": "Feature", "id": "5004ac4760e74a518831e48612cb31b1.11", "properties": {"name": "5004ac4760e74a518831e48612cb31b1.11"}}, {"geometry": {"type": "Point", "coordinates": [-90.508443, 14.598766]}, "type": "Feature", "id": "12fd7cd435864ba88ee38e8e6631fcd3.16", "properties": {"name": "12fd7cd435864ba88ee38e8e6631fcd3.16"}}, {"geometry": {"type": "Point", "coordinates": [-90.516667, 14.646753]}, "type": "Feature", "id": "5fbb2f3bff3b4305a13f048f19a3482f.16", "properties": {"name": "5fbb2f3bff3b4305a13f048f19a3482f.16"}}, {"geometry": {"type": "Point", "coordinates": [-90.465933, 14.654083]}, "type": "Feature", "id": "645117ebf97f497798aea19e62b7213e.16", "properties": {"name": "645117ebf97f497798aea19e62b7213e.16"}}, {"geometry": {"type": "Point", "coordinates": [-90.494525, 14.632235]}, "type": "Feature", "id": "7f1365c2796045649282f245bfed06f8.16", "properties": {"name": "7f1365c2796045649282f245bfed06f8.16"}}, {"geometry": {"type": "Point", "coordinates": [-90.496858, 14.627078]}, "type": "Feature", "id": "704879c0f2194754b05272d3c8226566.16", "properties": {"name": "704879c0f2194754b05272d3c8226566.16"}}, {"geometry": {"type": "Point", "coordinates": [-90.545846, 14.613545]}, "type": "Feature", "id": "37f79998a53348c0bfd6d3a424efe3c8.16", "properties": {"name": "37f79998a53348c0bfd6d3a424efe3c8.16"}}, {"geometry": {"type": "Point", "coordinates": [-90.47744, 14.628905]}, "type": "Feature", "id": "a6960f6715d642528bd48ec86c190cd5.16", "properties": {"name": "a6960f6715d642528bd48ec86c190cd5.16"}}, {"geometry": {"type": "Point", "coordinates": [-90.525666, 14.572775]}, "type": "Feature", "id": "6e28338eeb5b48cbaabfbea5c6f92ebb.16", "properties": {"name": "6e28338eeb5b48cbaabfbea5c6f92ebb.16"}}, {"geometry": {"type": "Point", "coordinates": [-90.526871, 14.607825]}, "type": "Feature", "id": "444a9c5873024b018d6b2eb0488be240.16", "properties": {"name": "444a9c5873024b018d6b2eb0488be240.16"}}, {"geometry": {"type": "Point", "coordinates": [-90.505991, 14.630779]}, "type": "Feature", "id": "96853e58a6b24ecc8247e76251bd3e83.16", "properties": {"name": "96853e58a6b24ecc8247e76251bd3e83.16"}}, {"geometry": {"type": "Point", "coordinates": [-90.484981, 14.571711]}, "type": "Feature", "id": "2f174ef08fb74e87a2ef71e4ef572f61.16", "properties": {"name": "2f174ef08fb74e87a2ef71e4ef572f61.16"}}, {"geometry": {"type": "Point", "coordinates": [-90.553866, 14.587848]}, "type": "Feature", "id": "f97b1ae8b36648d89ba5dfd00795d881.16", "properties": {"name": "f97b1ae8b36648d89ba5dfd00795d881.16"}}, {"geometry": {"type": "Point", "coordinates": [-90.516684, 14.630064]}, "type": "Feature", "id": "17897a2c97ee4cc0b1083143ab5fa516.16", "properties": {"name": "17897a2c97ee4cc0b1083143ab5fa516.16"}}, {"geometry": {"type": "Point", "coordinates": [-90.527988, 14.593316]}, "type": "Feature", "id": "4bc62ddf5df24879bbc7ec23a80f2950.16", "properties": {"name": "4bc62ddf5df24879bbc7ec23a80f2950.16"}}, {"geometry": {"type": "Point", "coordinates": [-90.523283, 14.604085]}, "type": "Feature", "id": "a2d7ff3c50fd468faa73131aa3f5bbac.16", "properties": {"name": "a2d7ff3c50fd468faa73131aa3f5bbac.16"}}, {"geometry": {"type": "Point", "coordinates": [-90.504156, 14.60457]}, "type": "Feature", "id": "a2771fd31286428ebfd946f60ef78d30.16", "properties": {"name": "a2771fd31286428ebfd946f60ef78d30.16"}}, {"geometry": {"type": "Point", "coordinates": [-90.521676, 14.596138]}, "type": "Feature", "id": "77d19891349c417091e9becd36f14b21.16", "properties": {"name": "77d19891349c417091e9becd36f14b21.16"}}, {"geometry": {"type": "Point", "coordinates": [-90.576612, 14.577424]}, "type": "Feature", "id": "96372b1f27754d37911260b178b205d6.16", "properties": {"name": "96372b1f27754d37911260b178b205d6.16"}}, {"geometry": {"type": "Point", "coordinates": [-90.546346, 14.636225]}, "type": "Feature", "id": "5494334934d141dd85573ed185de1d62.16", "properties": {"name": "5494334934d141dd85573ed185de1d62.16"}}, {"geometry": {"type": "Point", "coordinates": [-90.515427, 14.618619]}, "type": "Feature", "id": "211d9d672630441b849ae697e70bec62.16", "properties": {"name": "211d9d672630441b849ae697e70bec62.16"}}, {"geometry": {"type": "Point", "coordinates": [-90.486855, 14.608236]}, "type": "Feature", "id": "c5da344416f74843b44fb3919971de9a.16", "properties": {"name": "c5da344416f74843b44fb3919971de9a.16"}}, {"geometry": {"type": "Point", "coordinates": [-90.48805, 14.585061]}, "type": "Feature", "id": "486303920d4941b5baf770ba5249db24.16", "properties": {"name": "486303920d4941b5baf770ba5249db24.16"}}, {"geometry": {"type": "Point", "coordinates": [-90.55579, 14.612917]}, "type": "Feature", "id": "5da87fccd21a4000a66b74cc937f2c95.16", "properties": {"name": "5da87fccd21a4000a66b74cc937f2c95.16"}}, {"geometry": {"type": "Point", "coordinates": [-90.548131, 14.609713]}, "type": "Feature", "id": "7598ed3f9d874b45b04d0a95157ffcc7.16", "properties": {"name": "7598ed3f9d874b45b04d0a95157ffcc7.16"}}, {"geometry": {"type": "Point", "coordinates": [-90.554629, 14.584467]}, "type": "Feature", "id": "39a7bf546dfb4a29911f52348ec9c368.16", "properties": {"name": "39a7bf546dfb4a29911f52348ec9c368.16"}}]}